City_ID,City,Lat,Lng,Max Temp,Humidity,Cloudiness,Wind Speed,Country,Date
0,castro,-24.7911,-50.0119,17.5,84,9,2.52,BR,1675646177
1,tabat,-2.635,115.2274,26.02,85,100,0.39,ID,1675646179
2,pevek,69.7008,170.3133,-35.13,96,100,1.56,RU,1675645802
3,airai,-8.9266,125.4092,20.41,73,89,1.55,TL,1675645787
4,qaanaaq,77.484,-69.3632,-18.74,52,95,1.14,GL,1675645715
5,mataura,-46.1927,168.8643,16.85,69,98,4.9,NZ,1675645767
6,kapaa,22.0752,-159.319,26.99,83,100,4.12,US,1675645783
7,jumla,29.2747,82.1838,2.1,50,0,1.85,NP,1675645867
8,busselton,-33.65,115.3333,23.44,59,0,5.15,AU,1675645782
9,hobart,-42.8794,147.3294,22.37,50,40,10.29,AU,1675645776
10,noyabrsk,63.1994,75.4507,-18.22,99,100,0.17,RU,1675646181
11,lethem,3.3803,-59.7968,23.2,87,100,5.5,GY,1675646181
12,ostrovnoy,68.0531,39.5131,-10.97,92,100,7.15,RU,1675646049
13,codrington,-38.2667,141.9667,18.37,60,88,3.59,AU,1675646049
14,jamestown,42.097,-79.2353,4.84,70,100,5.14,US,1675646060
15,ilulissat,69.2167,-51.1,-16.99,78,100,10.8,GL,1675646183
16,saint-augustin,51.226,-58.6502,-15.43,96,100,1.43,CA,1675646162
17,nikolskoye,59.7035,30.7861,-3.06,94,100,3.2,RU,1675646184
18,bredasdorp,-34.5322,20.0403,20.13,90,44,4.71,ZA,1675646134
19,albany,42.6001,-73.9662,4.94,58,100,2.11,US,1675645949
20,port elizabeth,-33.918,25.5701,23.94,94,75,5.66,ZA,1675646186
21,havoysund,70.9963,24.6622,4.13,69,11,10.48,NO,1675646188
22,fairbanks,64.8378,-147.7164,-13.84,81,0,2.57,US,1675646102
23,yatou,37.15,122.3833,4.69,75,96,1.66,CN,1675646189
24,bandarbeyla,9.4942,50.8122,23.49,76,66,6.47,SO,1675646140
25,olafsvik,64.8945,-23.7142,1.96,69,100,18.54,IS,1675646190
26,siavonga,-16.5382,28.7088,21.94,92,98,1.59,ZM,1675646190
27,roebourne,-20.7833,117.1333,35.11,36,1,2.36,AU,1675646191
28,new norfolk,-42.7826,147.0587,22.18,52,50,2.68,AU,1675646191
29,coahuayana,18.7333,-103.6833,23.24,75,0,1.67,MX,1675646074
30,krasnokamensk,50.0979,118.0369,-26.54,100,79,1.54,RU,1675646192
31,arraial do cabo,-22.9661,-42.0278,24.28,91,94,3.45,BR,1675646152
32,pacific grove,36.6177,-121.9166,11.95,80,75,8.05,US,1675646100
33,constitucion,-35.3333,-72.4167,14.38,95,14,2.14,CL,1675646106
34,hermanus,-34.4187,19.2345,21.56,87,25,5.4,ZA,1675646132
35,sobolevo,54.4299,31.8996,-8.89,97,99,2.5,RU,1675646193
36,vaini,-21.2,-175.2,27.41,70,97,4.79,TO,1675646172
37,koygorodok,60.445,50.9968,-23.23,100,100,0.32,RU,1675646194
38,barrow,71.2906,-156.7887,-27.99,76,100,1.54,US,1675646134
39,klaksvik,62.2266,-6.589,9.51,90,100,14.85,FO,1675645961
40,carnarvon,-24.8667,113.6333,26.87,62,0,7.38,AU,1675646159
41,avarua,-21.2078,-159.775,25.03,88,75,6.17,CK,1675646023
42,madison,34.7334,-86.5667,11.8,74,0,2.68,US,1675646123
43,gat,31.61,34.7642,13.0,12,6,6.63,IL,1675646195
44,tasiilaq,65.6145,-37.6368,-3.91,95,100,2.03,GL,1675646016
45,wattegama,6.7989,81.4808,21.57,97,100,1.74,LK,1675646195
46,yellowknife,62.456,-114.3525,-20.25,76,100,5.36,CA,1675646133
47,ponta do sol,32.6667,-17.1,16.35,52,4,2.47,PT,1675646195
48,husavik,66.0449,-17.3389,6.64,67,100,14.75,IS,1675646174
49,araouane,18.9048,-3.5265,16.61,20,10,4.34,ML,1675646196
50,ozoir-la-ferriere,48.767,2.6687,4.06,91,0,3.6,FR,1675646197
51,atuona,-9.8,-139.0333,25.98,74,19,7.84,PF,1675646104
52,severo-kurilsk,50.6789,156.125,-2.83,73,100,4.28,RU,1675646185
53,cape town,-33.9258,18.4232,22.17,77,0,4.92,ZA,1675646190
54,dikson,73.5069,80.5464,-18.81,97,100,1.04,RU,1675646011
55,ambon,-3.6954,128.1814,30.08,70,40,1.54,ID,1675646198
56,dapaong,10.8639,0.205,27.05,14,100,2.44,TG,1675646198
57,vanavara,60.34,102.2797,-13.29,96,100,2.02,RU,1675646198
58,ouadda,8.0777,22.4007,19.83,20,6,2.11,CF,1675646199
59,bambous virieux,-20.3428,57.7575,26.23,88,40,1.54,MU,1675646197
60,rikitea,-23.1203,-134.9692,26.19,75,3,6.27,PF,1675646199
61,torbay,47.6666,-52.7314,-4.02,79,39,2.24,CA,1675646121
62,komsomolskiy,40.4272,71.7189,3.4,93,100,1.03,UZ,1675646201
63,pontianak,-0.0333,109.3333,25.99,94,40,2.06,ID,1675646201
64,hithadhoo,-0.6,73.0833,27.18,70,97,4.68,MV,1675646200
65,saint george,37.1041,-113.5841,8.33,63,100,7.72,US,1675646012
66,chapais,49.7834,-74.8492,-18.12,98,100,1.54,CA,1675646202
67,bjerkvik,68.5597,17.5189,2.9,95,100,1.34,NO,1675646203
68,sambava,-14.2667,50.1667,23.53,92,100,2.48,MG,1675646203
69,berdigestyakh,62.0989,126.6992,-35.51,98,100,1.53,RU,1675646203
70,lata,40.1629,-8.3327,4.49,76,0,1.92,PT,1675646204
71,padang,-0.9492,100.3543,23.03,77,100,1.62,ID,1675645936
72,kavieng,-2.5744,150.7967,28.84,70,58,1.89,PG,1675646198
73,ancud,-41.8697,-73.8203,14.42,77,69,2.11,CL,1675646139
74,inhambane,-23.865,35.3833,22.88,87,58,2.53,MZ,1675646203
75,praia da vitoria,38.7333,-27.0667,15.42,93,100,7.34,PT,1675645986
76,nanortalik,60.1432,-45.2371,-7.18,77,100,12.98,GL,1675646145
77,bluff,-46.6,168.3333,15.18,80,99,10.84,NZ,1675646141
78,punta arenas,-53.15,-70.9167,10.06,71,75,9.77,CL,1675646199
79,onguday,50.75,86.15,-15.66,98,100,1.27,RU,1675646205
80,waynesboro,38.0685,-78.8895,8.66,57,0,3.09,US,1675646189
81,sa kaeo,13.75,102.3333,25.8,74,20,3.01,TH,1675646206
82,kamaishi,39.2667,141.8833,4.61,64,99,2.36,JP,1675646206
83,cidreira,-30.1811,-50.2056,23.0,81,100,3.93,BR,1675646206
84,longyearbyen,78.2186,15.6401,-2.09,74,40,1.03,SJ,1675646130
85,tuktoyaktuk,69.4541,-133.0374,-38.39,100,55,2.74,CA,1675646142
86,tuatapere,-46.1333,167.6833,16.29,80,95,4.52,NZ,1675646207
87,svetlaya,46.5389,138.3297,-9.69,54,3,2.3,RU,1675646207
88,salalah,17.0151,54.0924,20.75,64,100,1.29,OM,1675645951
89,ternate,0.8,127.4,25.79,83,100,3.17,ID,1675646208
90,cherskiy,68.75,161.3,-38.98,99,98,2.15,RU,1675646151
91,gravdal,68.1214,13.5031,4.05,87,100,12.04,NO,1675646035
92,tiksi,71.6872,128.8694,-31.82,100,100,1.52,RU,1675646006
93,okato,-39.2,173.8833,20.38,69,1,4.26,NZ,1675646208
94,port blair,11.6667,92.75,26.26,77,1,2.65,IN,1675645962
95,lebu,-37.6167,-73.65,16.11,90,1,8.1,CL,1675646022
96,khatanga,71.9667,102.5,-36.84,100,48,2.94,RU,1675645961
97,kaitangata,-46.2817,169.8464,18.62,60,59,6.94,NZ,1675646198
98,igunga,-4.2833,33.8833,17.49,92,100,1.67,TZ,1675646209
99,sinnamary,5.3833,-52.95,24.42,87,88,5.48,GF,1675646210
100,yenagoa,4.9247,6.2642,25.73,88,100,2.67,NG,1675646210
101,mount isa,-20.7333,139.5,28.87,70,100,4.12,AU,1675646210
102,saint-philippe,-21.3585,55.7679,24.77,85,100,4.65,RE,1675646161
103,grindavik,63.8424,-22.4338,3.26,56,40,13.38,IS,1675646211
104,bethel,41.3712,-73.414,4.93,68,0,0.0,US,1675645939
105,hasaki,35.7333,140.8333,10.16,70,3,3.04,JP,1675645978
106,aquiraz,-3.9014,-38.3911,27.88,84,70,3.7,BR,1675646212
107,ushuaia,-54.8,-68.3,2.49,90,72,0.92,AR,1675646150
108,saint-pierre,-21.3393,55.4781,24.82,73,0,2.06,RE,1675646213
109,yola,9.2,12.4833,24.65,18,100,0.78,NG,1675646213
110,ambanja,-13.6833,48.45,23.26,93,88,1.32,MG,1675646214
111,faanui,-16.4833,-151.75,27.73,73,8,6.61,PF,1675646065
112,ouricuri,-7.8825,-40.0817,24.18,46,44,1.54,BR,1675646215
113,quechultenango,17.4167,-99.2167,20.98,71,0,1.9,MX,1675646215
114,denia,38.8408,0.1057,11.03,87,0,1.34,ES,1675646216
115,raudeberg,61.9875,5.1352,6.59,75,100,11.13,NO,1675646216
116,gorontalo,0.5412,123.0595,28.31,66,100,1.4,ID,1675646216
117,mazabuka,-15.856,27.748,17.84,98,99,0.76,ZM,1675646217
118,ostrow wielkopolski,51.655,17.8069,-2.6,83,100,1.51,PL,1675646217
119,geraldton,-28.7667,114.6,24.23,69,100,6.69,AU,1675646153
120,arman,59.7,150.1667,-22.7,78,94,3.59,RU,1675646218
121,kavaratti,10.5669,72.642,26.6,75,13,2.88,IN,1675646218
122,kruisfontein,-34.0033,24.7314,22.71,90,89,2.38,ZA,1675646219
123,east london,-33.0153,27.9116,23.36,85,82,5.82,ZA,1675646195
124,saldanha,-33.0117,17.9442,17.85,94,0,4.26,ZA,1675645954
125,fukuma,33.7667,130.4667,6.83,48,100,1.91,JP,1675646219
126,port hardy,50.6996,-127.4199,6.6,82,100,2.84,CA,1675646132
127,nouadhibou,20.931,-17.0347,15.99,55,41,7.72,MR,1675646220
128,butaritari,3.0707,172.7902,26.91,83,100,7.6,KI,1675646195
129,adrar,20.5022,-10.0711,14.24,29,100,4.47,MR,1675646031
130,thompson,55.7435,-97.8558,-14.64,96,100,2.73,CA,1675645948
131,narsaq,60.9167,-46.05,-9.88,74,74,5.77,GL,1675646201
132,georgetown,5.4112,100.3354,25.96,89,20,0.51,MY,1675645853
133,dakar,14.6937,-17.4441,19.49,70,57,8.92,SN,1675646101
134,rawson,-43.3002,-65.1023,17.37,66,100,9.46,AR,1675646221
135,urengoy,65.9667,78.3667,-27.28,100,71,0.81,RU,1675646070
136,taoudenni,22.6783,-3.9836,15.81,24,100,4.47,ML,1675646056
137,aswan,24.0934,32.907,14.61,30,0,2.06,EG,1675646222
138,bengkulu,-3.8004,102.2655,24.57,81,95,2.0,ID,1675646136
139,hervey bay,-25.2986,152.8535,27.16,77,67,8.82,AU,1675646224
140,lagoa,39.05,-27.9833,15.01,84,100,4.44,PT,1675645984
141,kachug,53.9606,105.8817,-21.16,99,99,0.96,RU,1675646226
142,dingle,10.9995,122.6711,26.6,81,74,4.29,PH,1675645958
143,doha,25.2867,51.5333,17.94,82,0,2.06,QA,1675646226
144,cayenne,4.9333,-52.3333,22.02,100,0,0.0,GF,1675646227
145,serafimovich,49.5786,42.736,-8.56,95,100,2.14,RU,1675646228
146,luganville,-15.5333,167.1667,28.98,77,100,5.99,VU,1675646228
147,saskylakh,71.9167,114.0833,-41.73,100,94,1.72,RU,1675645982
148,lloydminster,53.2835,-110.0016,-5.36,96,100,1.79,CA,1675646079
149,dalbandin,28.8947,64.4101,12.35,41,0,2.46,PK,1675646229
150,bushehr,28.9684,50.8385,14.05,67,0,3.09,IR,1675646230
151,chuy,-33.6971,-53.4616,18.95,81,0,2.26,UY,1675645856
152,nong bua,15.8646,100.5858,25.5,68,95,2.66,TH,1675646231
153,zaqatala,41.6336,46.6433,0.26,75,75,3.09,AZ,1675646231
154,iqaluit,63.7506,-68.5145,-27.95,68,100,4.02,CA,1675645960
155,tura,25.5198,90.2201,13.2,53,0,1.62,IN,1675646020
156,ribeira grande,38.5167,-28.7,16.54,91,100,6.71,PT,1675645952
157,altay,47.8667,88.1167,-7.89,69,100,2.57,CN,1675645961
158,margate,51.3813,1.3862,5.39,89,63,1.34,GB,1675646234
159,talnakh,69.4865,88.3972,-15.44,98,99,1.09,RU,1675646214
160,half moon bay,37.4636,-122.4286,11.04,85,0,7.72,US,1675646131
161,mweka,-4.85,21.5667,18.61,94,51,0.77,CD,1675646235
162,xichang,27.8964,102.2634,7.39,57,0,0.28,CN,1675646236
163,sept-iles,50.2001,-66.3821,-16.0,83,100,2.06,CA,1675646237
164,luderitz,-26.6481,15.1594,16.48,94,92,3.02,NA,1675645976
165,cienfuegos,22.1461,-80.4356,24.08,88,2,1.54,CU,1675646097
166,clyde river,70.4692,-68.5914,-29.87,69,0,3.6,CA,1675646234
167,sitka,57.0531,-135.33,5.94,61,100,10.29,US,1675646238
168,talgar,43.3027,77.2395,-3.91,93,75,3.0,KZ,1675646240
169,mahebourg,-20.4081,57.7,26.25,88,40,1.54,MU,1675646235
170,barstow,34.8986,-117.0228,12.55,36,8,10.56,US,1675646240
171,kahului,20.8947,-156.47,27.01,72,20,9.77,US,1675646013
172,yemtsa,63.0734,40.3329,-16.8,96,40,2.61,RU,1675646241
173,havre-saint-pierre,50.2334,-63.5986,-11.0,85,100,1.54,CA,1675646242
174,rapid valley,44.0625,-103.1463,6.46,62,0,7.6,US,1675646243
175,tual,-5.6667,132.75,26.8,82,100,8.51,ID,1675646244
176,fortuna,40.5982,-124.1573,9.25,92,98,0.45,US,1675646103
177,zhezkazgan,47.8043,67.7144,-4.01,93,100,3.0,KZ,1675646247
178,aykhal,66.0,111.5,-33.46,99,100,1.21,RU,1675646248
179,kabalo,-6.05,26.9167,19.49,97,98,1.18,CD,1675646248
180,qiyang,26.5911,111.8474,9.88,88,100,1.03,CN,1675646249
181,sorland,67.667,12.6934,5.92,97,100,13.28,NO,1675646249
182,hami,42.8,93.45,-1.97,42,84,1.65,CN,1675646141
183,sebring,27.4956,-81.4409,20.5,88,0,2.06,US,1675646248
184,hilo,19.7297,-155.09,25.71,88,75,2.68,US,1675645975
185,wadern,49.5333,6.8833,4.96,96,97,3.25,DE,1675646250
186,escanaba,45.7453,-87.0646,-4.83,75,100,2.57,US,1675646250
187,puerto ayora,-0.7393,-90.3518,26.42,93,37,2.68,EC,1675646161
188,san patricio,28.017,-97.5169,20.1,85,0,4.27,US,1675646248
189,onega,63.9061,38.1404,-13.21,98,95,2.13,RU,1675646251
190,gari,59.4307,62.3497,-16.08,98,100,0.49,RU,1675646251
191,iskateley,67.6803,53.1512,-18.81,98,46,3.51,RU,1675646251
192,laguna,38.421,-121.4238,13.03,65,0,4.12,US,1675646117
193,zhanaozen,43.3,52.8,-0.5,74,97,5.34,KZ,1675646252
194,eyl,7.9803,49.8164,22.65,81,95,5.8,SO,1675646252
195,poum,-20.2333,164.0167,28.96,79,100,7.86,NC,1675645943
196,becerril,9.7041,-73.2793,28.36,56,4,3.96,CO,1675646170
197,biltine,14.5333,20.9167,21.67,12,100,4.01,TD,1675646209
198,isla vista,34.4133,-119.861,16.08,62,0,8.75,US,1675646253
199,upernavik,72.7868,-56.1549,-25.15,94,100,3.04,GL,1675646062
200,los llanos de aridane,28.6585,-17.9182,13.86,71,20,3.6,ES,1675646115
201,port alfred,-33.5906,26.891,22.88,94,78,4.71,ZA,1675646031
202,flinders,-34.5833,150.8552,28.99,66,0,2.68,AU,1675646254
203,makakilo city,21.3469,-158.0858,27.18,63,20,6.69,US,1675645980
204,camacha,33.0833,-16.3333,13.68,67,20,4.63,PT,1675646195
205,dossor,47.5272,52.9811,-6.54,74,17,2.55,KZ,1675646255
206,mar del plata,-38.0023,-57.5575,25.46,51,100,5.63,AR,1675646043
207,bhinmal,25.0,72.25,16.82,65,0,2.86,IN,1675646255
208,takayama,36.1333,137.25,3.11,61,28,0.64,JP,1675646256
209,esperance,-33.8667,121.9,25.14,45,79,8.74,AU,1675646148
210,hobyo,5.3505,48.5268,24.51,77,95,6.8,SO,1675646090
211,bintulu,3.1667,113.0333,25.85,85,79,1.04,MY,1675646140
212,teshie,5.5836,-0.1072,26.31,73,20,2.57,GH,1675646256
213,kulhudhuffushi,6.6221,73.07,26.57,75,100,1.17,MV,1675645957
214,kawhia,-38.0651,174.8183,21.09,81,48,4.39,NZ,1675646257
215,sao filipe,14.8961,-24.4956,20.86,62,24,6.9,CV,1675646010
216,northam,51.0333,-4.2167,3.12,82,23,2.98,GB,1675646258
217,butembo,0.15,29.2833,18.07,46,100,0.75,CD,1675646258
218,dunedin,-45.8742,170.5036,21.56,57,69,4.02,NZ,1675646157
219,goundam,16.4145,-3.6708,20.13,16,99,4.22,ML,1675646259
220,coquimbo,-29.9533,-71.3436,18.85,82,0,2.57,CL,1675645825
221,altamira,-3.2033,-52.2064,22.38,96,6,1.05,BR,1675646259
222,muscatine,41.4667,-91.1335,1.16,71,0,2.57,US,1675646260
223,bilma,18.6853,12.9164,17.32,10,16,5.85,NE,1675646260
224,provideniya,64.3833,-173.3,-13.94,72,100,8.05,RU,1675646133
225,xuddur,4.1213,43.8894,19.69,82,38,6.58,SO,1675646261
226,belaya gora,68.5333,146.4167,-40.61,100,100,1.09,RU,1675646261
227,kazachinskoye,57.6953,93.2761,-25.13,100,100,1.04,RU,1675646262
228,samarai,-10.6167,150.6667,27.88,79,99,5.25,PG,1675646036
229,high level,58.5169,-117.136,-10.94,79,75,2.57,CA,1675646262
230,kodiak,57.79,-152.4072,2.73,93,100,3.6,US,1675646130
231,moyo,3.6609,31.7247,21.13,36,45,0.34,UG,1675646263
232,asau,46.4333,26.4,-4.29,93,100,3.75,RO,1675646058
233,camapua,-19.5314,-54.0439,22.4,91,88,0.81,BR,1675646264
234,sovetskiy,61.3614,63.5842,-16.49,98,100,1.34,RU,1675646264
235,mulege,26.8833,-111.9833,18.54,39,99,0.6,MX,1675646264
236,mwandiga,-4.83,29.6581,20.95,84,100,1.43,TZ,1675646265
237,zwedru,6.0667,-8.1281,22.96,93,100,1.4,LR,1675646265
238,cananeia,-25.0147,-47.9267,24.98,81,9,1.99,BR,1675646266
239,mezhdurechensk,53.6942,88.0603,-21.98,99,8,1.54,RU,1675646266
240,bethanien,-26.502,17.1583,25.09,37,100,2.44,NA,1675646267
241,skibbereen,51.55,-9.2667,10.06,96,31,4.37,IE,1675646267
242,maniitsoq,65.4167,-52.9,-14.5,83,100,6.23,GL,1675646268
243,yulara,-25.2406,130.9889,28.69,13,0,5.65,AU,1675646269
244,copiapo,-27.3667,-70.3333,17.83,54,74,1.44,CL,1675646222
245,sur,22.5667,59.5289,21.26,69,12,2.94,OM,1675646269
246,daru,-9.0763,143.2092,25.26,91,100,2.53,PG,1675646203
247,port lincoln,-34.7333,135.8667,19.69,67,4,6.08,AU,1675646070
248,alice springs,-23.7,133.8833,28.75,16,2,6.17,AU,1675646270
249,mount gambier,-37.8333,140.7667,19.8,53,19,2.98,AU,1675646228
250,paranaiba,-19.6772,-51.1908,23.25,88,100,1.24,BR,1675646278
251,west memphis,35.1465,-90.1845,11.17,81,0,0.0,US,1675646279
252,comodoro rivadavia,-45.8667,-67.5,16.92,72,0,1.54,AR,1675646273
253,yar-sale,66.8333,70.8333,-27.85,100,87,0.65,RU,1675646286
254,salobrena,36.7428,-3.5872,11.67,78,0,1.46,ES,1675646290
255,visby,57.6409,18.296,0.12,93,100,5.66,SE,1675646293
256,sidi ali,36.0998,0.4206,8.35,78,0,3.44,DZ,1675646298
257,asahikawa,43.7678,142.3703,-3.03,93,75,3.6,JP,1675646299
258,dhidhdhoo,6.8833,73.1,26.9,73,88,1.22,MV,1675646300
259,lasa,46.6166,10.7002,-2.21,92,49,2.69,IT,1675646211
260,vanimo,-2.6741,141.3028,26.16,86,100,0.54,PG,1675646307
261,bambanglipuro,-7.95,110.2833,27.0,76,87,0.96,ID,1675646309
262,palaia fokaia,37.72,23.9463,3.81,65,99,12.94,GR,1675646310
263,porto santo,33.072,-16.3415,15.21,67,20,4.63,PT,1675646311
264,san policarpo,12.1791,125.5072,26.8,84,100,5.86,PH,1675646312
265,gornopravdinsk,60.05,69.9,-18.25,99,100,0.65,RU,1675646314
266,bayji,34.9311,43.487,11.21,55,100,6.09,IQ,1675646315
267,sola,-13.8833,167.55,27.25,79,100,6.35,VU,1675646269
268,guerrero negro,27.9769,-114.0611,16.1,77,96,8.43,MX,1675646319
269,sisimiut,66.9395,-53.6735,-18.39,93,100,2.53,GL,1675646193
270,san francisco menendez,13.8431,-90.0158,23.63,64,0,2.01,SV,1675646320
271,beringovskiy,63.05,179.3167,-27.36,92,93,5.16,RU,1675646311
272,guerrero,17.6667,-100.0,19.82,54,0,2.22,MX,1675646321
273,pisco,-13.7,-76.2167,24.03,83,0,5.14,PE,1675646144
274,nabire,-3.3667,135.4833,27.88,77,100,1.32,ID,1675646323
275,auki,-8.7676,160.7034,24.54,94,100,3.79,SB,1675646324
276,taitung,22.7583,121.1444,25.15,78,20,0.51,TW,1675646328
277,dungarpur,23.8333,73.7167,17.83,31,0,1.1,IN,1675646330
278,general roca,-39.0333,-67.5833,33.3,11,0,7.03,AR,1675646331
279,kousseri,12.0769,15.0306,24.08,16,59,4.04,CM,1675646334
280,darhan,49.4867,105.9228,-21.99,97,100,1.53,MN,1675646335
281,bogotol,56.2078,89.5342,-21.28,99,30,2.67,RU,1675646336
282,sitrah,26.1547,50.6206,17.75,80,0,1.03,BH,1675646337
283,alofi,-19.0595,-169.9187,23.94,94,100,8.75,NU,1675646196
284,muli,2.9167,73.5667,27.19,78,100,3.04,MV,1675646338
285,sioux lookout,50.1001,-91.917,-17.71,98,97,1.47,CA,1675646159
286,nsoko,-27.0333,31.95,21.28,88,81,1.89,SZ,1675646340
287,hammond,41.5834,-87.5,2.3,76,0,3.09,US,1675646165
288,jacareacanga,-6.2222,-57.7528,23.0,98,100,0.71,BR,1675646203
289,pringsewu,-5.3582,104.9744,25.46,67,100,0.42,ID,1675646342
290,saint john,45.2727,-66.0677,0.91,84,100,4.45,CA,1675645648
291,zhob,31.3411,69.4481,7.97,58,0,0.74,PK,1675646344
292,marawi,7.9986,124.2928,24.7,66,45,1.03,PH,1675646215
293,college,64.8569,-147.8028,-13.84,81,40,2.57,US,1675646150
294,coos bay,43.3665,-124.2179,8.85,87,100,6.17,US,1675646093
295,susanville,40.4163,-120.653,3.91,74,0,4.12,US,1675646349
296,pampa,35.5362,-100.9599,13.53,46,0,5.14,US,1675646294
297,salta,-24.7859,-65.4117,20.33,84,40,2.06,AR,1675646355
298,baghdad,33.3406,44.4009,10.95,66,0,2.06,IQ,1675646069
299,kapoeta,4.7717,33.5903,27.29,33,85,1.12,SS,1675646357
300,anadyr,64.75,177.4833,-30.56,74,75,5.0,RU,1675646358
301,bat yam,32.0231,34.7503,12.79,59,20,6.69,IL,1675646360
302,cockburn town,21.4612,-71.1419,24.98,69,40,6.69,TC,1675646270
303,caninde,-4.3589,-39.3117,23.56,90,48,1.12,BR,1675646363
304,floro,61.5996,5.0328,7.2,87,100,9.26,NO,1675646364
305,puerto baquerizo moreno,-0.9,-89.6,26.11,77,34,3.44,EC,1675646365
306,quatre cocos,-20.2078,57.7625,26.16,83,100,4.34,MU,1675646297
307,normandin,48.8333,-72.5321,-12.83,85,100,0.51,CA,1675646366
308,valparaiso,-33.0393,-71.6273,17.8,77,0,2.06,CL,1675646199
309,benguela,-12.5763,13.4055,25.05,76,100,0.91,AO,1675646369
310,port-gentil,-0.7193,8.7815,27.15,78,99,5.11,GA,1675646370
311,korla,41.7597,86.1469,-2.93,69,88,1.28,CN,1675646155
312,karad,17.2833,74.2,20.09,36,6,1.52,IN,1675646372
313,quesnel,52.9999,-122.5029,6.28,33,0,5.66,CA,1675646372
314,soyo,-6.1349,12.3689,25.78,84,87,2.2,AO,1675646373
315,katsuura,35.1333,140.3,9.9,67,9,2.46,JP,1675646150
316,alekseyevka,50.6309,38.6903,-7.15,97,100,2.61,RU,1675646375
317,tomatlan,19.9333,-105.25,23.29,64,0,1.51,MX,1675646375
318,bilibino,68.0546,166.4372,-35.58,100,100,0.54,RU,1675646376
319,bonthe,7.5264,-12.505,24.39,86,99,1.97,SL,1675646377
320,assiniboia,49.6334,-105.9845,1.9,69,89,7.2,CA,1675646377
321,ekhabi,53.5102,142.9671,-17.79,92,100,5.4,RU,1675646378
322,kaoma,-14.7833,24.8,17.9,99,100,0.57,ZM,1675646379
323,lerwick,60.1545,-1.1494,8.0,85,100,10.46,GB,1675646234
324,bikaner,28.0167,73.3,18.22,39,0,4.44,IN,1675646380
325,buraydah,26.326,43.975,12.25,41,32,3.46,SA,1675646212
326,necochea,-38.5473,-58.7368,23.48,46,96,3.39,AR,1675646358
327,salinopolis,-0.6136,-47.3561,25.27,89,100,4.57,BR,1675646381
328,puerto narino,-3.7703,-70.3831,21.85,96,100,0.82,CO,1675646382
329,cachoeira do sul,-30.0392,-52.8939,22.26,66,100,2.05,BR,1675646383
330,santana,-0.0583,-51.1817,26.1,94,40,3.09,BR,1675646383
331,acapulco,16.8634,-99.8901,27.9,69,0,3.09,MX,1675646245
332,chokurdakh,70.6333,147.9167,-41.07,100,95,0.43,RU,1675646155
333,little current,45.9793,-81.9248,-3.63,86,96,0.45,CA,1675646131
334,borovskoy,53.8,64.15,-16.84,98,93,2.43,KZ,1675646386
335,norman wells,65.282,-126.8329,-29.89,100,72,0.63,CA,1675646159
336,santona,43.4439,-3.4576,11.15,72,100,5.05,ES,1675646387
337,tonj,7.2737,28.6822,24.05,18,100,2.03,SS,1675646388
338,upata,8.0086,-62.3989,23.44,79,40,3.22,VE,1675646388
339,kahama,-3.8333,32.6,16.6,92,100,1.31,TZ,1675646389
340,matamoros,25.5333,-103.25,25.06,14,0,2.57,MX,1675646197
341,constantine,36.365,6.6147,4.67,93,40,1.54,DZ,1675646390
342,baherden,38.4362,57.4316,7.25,54,2,1.88,TM,1675646390
343,koulikoro,14.0,-7.75,21.99,17,0,4.21,ML,1675646391
344,berbera,10.4396,45.0143,22.88,71,81,2.39,SO,1675646391
345,victoria,22.2855,114.1577,19.62,87,84,1.34,HK,1675645905
346,fort nelson,58.8053,-122.7002,-16.14,81,0,1.03,CA,1675646213
347,pangnirtung,66.1451,-65.7125,-37.69,95,95,2.1,CA,1675646392
348,namatanai,-3.6667,152.4333,29.41,65,45,2.15,PG,1675646393
349,pokrovskoye,47.4157,38.8971,-1.3,81,100,5.96,RU,1675646393
350,mehamn,71.0357,27.8492,3.97,65,100,9.26,NO,1675646129
351,road town,18.4167,-64.6167,26.02,73,40,5.66,VG,1675646190
352,khuzhir,53.1939,107.3397,-14.55,90,61,3.68,RU,1675646394
353,luanda,-8.8368,13.2343,26.0,83,75,2.57,AO,1675646395
354,merauke,-8.4667,140.3333,27.57,80,91,3.61,ID,1675646395
355,aloleng,16.1307,119.7824,26.94,65,100,3.34,PH,1675646337
356,harper,4.375,-7.7169,26.57,84,88,3.86,LR,1675646291
357,najran,17.4924,44.1277,14.36,39,60,0.59,SA,1675646396
358,naze,28.3667,129.4833,17.51,88,100,5.21,JP,1675646396
359,owando,-0.4819,15.8999,23.95,74,100,1.28,CG,1675646396
360,georgiyevka,43.0369,74.7114,-1.98,93,100,3.0,KZ,1675646397
361,general pico,-35.6566,-63.7568,26.29,26,0,2.02,AR,1675646398
362,ishigaki,24.3448,124.1572,23.07,83,75,6.17,JP,1675646398
363,xingyi,24.1877,102.817,10.4,44,81,1.89,CN,1675646399
364,antofagasta,-23.65,-70.4,22.6,86,38,2.34,CL,1675646312
365,yate,51.5407,-2.4184,0.69,92,9,0.61,GB,1675646399
366,kyabe,9.4515,18.9449,25.39,16,100,2.6,TD,1675646400
367,hambantota,6.1241,81.1185,23.95,85,100,5.77,LK,1675646233
368,wawa,9.9022,4.4192,27.64,22,100,1.58,NG,1675646138
369,nelson bay,-32.7167,152.15,27.22,66,19,4.95,AU,1675646401
370,zdvinsk,54.7021,78.661,-18.95,98,100,3.16,RU,1675646402
371,surgut,61.25,73.4167,-19.9,84,100,2.0,RU,1675646407
372,kokkola,63.8385,23.1307,-0.6,95,0,1.54,FI,1675646409
373,williams lake,52.1415,-122.1445,0.44,98,89,1.0,CA,1675646130
374,dali,25.7,100.1833,6.54,50,0,1.5,CN,1675646412
375,ferrol,43.4832,-8.2369,12.37,78,11,3.47,ES,1675646414
376,whitehorse,60.7161,-135.0538,-7.77,79,100,5.66,CA,1675646415
377,mecca,21.4267,39.8261,20.07,70,13,0.87,SA,1675646417
378,vardo,70.3705,31.1107,-4.01,93,100,3.6,NO,1675646046
379,te anau,-45.4167,167.7167,16.11,77,99,2.98,NZ,1675646120
380,maryville,35.7565,-83.9705,11.14,72,0,4.63,US,1675646418
381,diofior,14.1833,-16.6667,19.4,45,50,5.41,SN,1675646419
382,svay rieng,11.0879,105.7993,25.13,72,100,2.67,KH,1675646420
383,mandiana,10.6333,-8.6833,25.7,20,100,2.41,GN,1675646421
384,luangwa,-15.6167,30.4167,21.69,95,96,1.1,ZM,1675646422
385,bezhta,42.1338,46.1283,-4.57,94,100,1.03,RU,1675646423
386,verkhnetulomskiy,68.6073,31.7962,-11.93,96,100,2.23,RU,1675646423
387,kidal,18.4411,1.4078,22.01,12,3,2.4,ML,1675646228
388,hovd,48.0056,91.6419,-16.25,76,88,1.03,MN,1675646124
389,pochutla,15.7432,-96.4661,25.9,72,0,1.85,MX,1675646427
390,erdenet,49.0333,104.0833,-21.29,100,57,1.17,MN,1675646427
391,sandakan,5.8402,118.1179,28.82,79,20,0.51,MY,1675646428
392,bosobolo,4.1833,19.9,24.2,26,8,0.86,CD,1675646429
393,arandis,-22.4167,14.9667,18.3,75,100,2.01,NA,1675646430
394,amlagora,22.8333,87.3333,16.05,40,0,1.74,IN,1675646431
395,sakakah,29.9697,40.2064,8.76,36,38,3.21,SA,1675646431
396,ampanihy,-24.7,44.75,21.75,94,100,3.12,MG,1675646431
397,xining,36.6167,101.7667,-4.93,59,55,1.08,CN,1675646156
398,souillac,-20.5167,57.5167,25.21,88,40,1.54,MU,1675646258
399,buta,2.7858,24.73,19.38,45,14,0.53,CD,1675646432
400,san pedro,14.35,121.0167,27.57,75,40,1.54,PH,1675646307
401,deputatskiy,69.3,139.9,-38.07,99,98,2.22,RU,1675646433
402,catia la mar,10.6038,-67.0303,27.11,78,40,3.09,VE,1675646434
403,otrado-kubanskoye,45.2442,40.8408,-0.95,83,48,5.8,RU,1675646434
404,cam ranh,11.9214,109.1591,24.98,78,20,1.54,VN,1675646434
405,conde,-7.2597,-34.9075,25.47,81,11,3.7,BR,1675646160
406,turinsk,58.0458,63.696,-16.35,99,99,0.7,RU,1675646178
407,aldan,58.6031,125.3894,-32.53,97,100,1.26,RU,1675646435
408,san jose,37.3394,-121.895,11.28,78,75,6.17,US,1675646138
409,nadym,65.5333,72.5167,-24.83,100,100,1.97,RU,1675646229
410,san cristobal,7.7669,-72.225,22.1,88,3,0.75,VE,1675646145
411,broken hill,-31.95,141.4333,26.9,26,0,5.6,AU,1675646436
412,mudon,16.2578,97.7164,23.81,81,49,1.45,MM,1675646436
413,queimadas,-10.9783,-39.6264,25.45,64,45,5.47,BR,1675646437
414,hamilton,39.1834,-84.5333,8.88,69,40,3.09,US,1675645863
415,avigliano,40.7329,15.72,-2.41,61,100,4.58,IT,1675646438
416,labytnangi,66.6572,66.4183,-22.72,95,58,1.38,RU,1675646263
417,portland,45.5234,-122.6762,10.32,88,75,4.12,US,1675645848
418,tabuk,17.4189,121.4443,24.31,77,85,1.9,PH,1675646347
419,le port,-20.9373,55.2919,25.98,79,100,3.93,RE,1675646439
420,leningradskiy,69.3833,178.4167,-29.33,98,100,2.03,RU,1675646148
421,tsiroanomandidy,-18.7667,46.0333,18.85,90,100,0.44,MG,1675646440
422,gobabis,-22.45,18.9667,19.39,83,100,6.53,NA,1675646383
423,jalu,29.0331,21.5482,11.79,44,100,6.04,LY,1675646440
424,mlonggo,-6.5333,110.7,27.4,82,99,2.1,ID,1675646441
425,baruun-urt,46.6806,113.2792,-19.6,91,16,2.09,MN,1675646431
426,maceio,-9.6658,-35.7353,24.69,94,20,2.06,BR,1675646343
427,nea peramos,38.0076,23.423,4.9,93,75,4.12,GR,1675646441
428,karratha,-20.7377,116.8463,34.22,41,2,0.6,AU,1675646398
429,bud,39.447,-86.1758,7.04,70,3,3.79,US,1675646442
430,kutum,14.2,24.6667,17.53,14,98,2.53,SD,1675646427
431,lorengau,-2.0226,147.2712,28.48,76,100,2.07,PG,1675646370
432,petropavlovsk-kamchatskiy,53.0452,158.6483,-4.67,74,75,0.0,RU,1675646443
433,waingapu,-9.6567,120.2641,26.4,85,100,6.65,ID,1675646443
434,muravlenko,63.7898,74.523,-19.46,100,100,0.31,RU,1675646444
435,kathmandu,27.7167,85.3167,8.8,83,20,1.03,NP,1675645743
436,pontes e lacerda,-15.2261,-59.3353,22.55,98,100,1.42,BR,1675646446
437,saint-joseph,-21.3667,55.6167,24.21,83,100,4.48,RE,1675646446
438,qandala,11.472,49.8728,21.95,78,29,1.56,SO,1675646081
439,la ronge,55.1001,-105.2842,-4.25,96,100,2.66,CA,1675646132
440,zeya,53.75,127.2667,-23.52,98,100,0.87,RU,1675646156
441,saurimo,-9.6608,20.3916,15.83,97,91,0.89,AO,1675646448
442,kloulklubed,7.0419,134.2556,27.28,77,100,9.48,PW,1675646254
443,isangel,-19.55,169.2667,30.18,67,100,1.26,VU,1675646001
444,cabo san lucas,22.8909,-109.9124,26.17,33,0,5.14,MX,1675645918
445,walvis bay,-22.9575,14.5053,18.94,87,100,2.25,NA,1675646450
446,pangai,-19.8,-174.35,28.06,74,75,6.17,TO,1675646146
447,awjilah,29.1081,21.2869,11.86,46,100,5.66,LY,1675646451
448,flin flon,54.7682,-101.865,-4.71,98,100,3.74,CA,1675646448
449,artesia,33.8658,-118.0831,18.04,64,0,9.77,US,1675646262
450,mitsamiouli,-11.3847,43.2844,27.31,77,100,3.21,KM,1675646444
451,wagga wagga,-35.1167,147.3667,28.11,45,0,2.63,AU,1675646270
452,huilong,31.8111,121.655,7.74,97,100,4.34,CN,1675646453
453,tigil,57.8,158.6667,-19.4,95,100,1.36,RU,1675646454
454,edea,3.8,10.1333,25.01,94,70,0.61,CM,1675646380
455,pijijiapan,15.7011,-93.23,25.23,63,0,2.28,MX,1675646455
456,itarema,-2.9248,-39.9167,25.01,87,86,3.98,BR,1675646130
457,shahdadkot,27.8477,67.9055,17.49,32,0,2.62,PK,1675646457
458,puquio,-14.7,-74.1333,9.72,94,100,0.89,PE,1675646457
459,ulcinj,41.9294,19.2244,0.12,42,0,4.65,ME,1675646457
460,juan lacaze,-34.4342,-57.4381,23.4,39,100,4.48,UY,1675646458
461,matara,5.9485,80.5353,23.93,92,100,2.01,LK,1675646419
462,graaff-reinet,-32.2522,24.5308,18.84,90,51,2.97,ZA,1675646459
463,byron bay,-28.65,153.6167,28.73,53,45,3.62,AU,1675646460
464,dudinka,69.4058,86.1778,-15.21,100,100,1.73,RU,1675646460
465,zavetnoye,47.1194,43.8903,-2.82,85,100,4.49,RU,1675646461
466,biak,-0.9131,122.8766,27.88,63,95,2.6,ID,1675646461
467,domoni,-12.2569,44.5319,25.81,84,100,0.81,KM,1675646463
468,surt,31.2089,16.5887,13.59,54,90,8.04,LY,1675646301
469,miles city,46.4083,-105.8406,3.54,70,100,2.57,US,1675646464
470,harriston,43.9001,-80.883,1.92,81,100,2.06,CA,1675646465
471,priyutnoye,46.1011,43.5072,-2.24,87,100,4.44,RU,1675646466
472,standish,43.9831,-83.9589,0.0,86,100,3.39,US,1675646470
473,paralimni,35.0375,33.9833,11.19,83,100,2.24,CY,1675646471
474,namibe,-15.1961,12.1522,21.48,80,100,2.68,AO,1675646154
475,cerrito,6.8432,-72.694,11.11,89,51,3.0,CO,1675646473
476,hagi,34.4,131.4167,6.05,53,100,1.52,JP,1675646474
477,alta floresta,-9.8756,-56.0861,22.35,95,99,1.19,BR,1675646443
478,colac,-38.3333,143.5833,17.32,52,24,2.75,AU,1675646475
479,angleton,29.1694,-95.4319,19.07,83,0,3.09,US,1675646476
480,tonkino,57.3726,46.4629,-17.96,100,98,1.2,RU,1675646477
481,ola,59.5833,151.2833,-21.67,77,99,3.84,RU,1675646443
482,egvekinot,66.3167,-179.1667,-27.66,85,100,5.29,RU,1675646320
483,ayan,56.45,138.1667,-21.21,74,67,2.96,RU,1675646272
484,khasan,42.4308,130.6434,-3.8,69,9,4.14,RU,1675646480
485,vanderhoof,54.0166,-124.0198,1.37,76,14,4.44,CA,1675646481
486,goderich,43.7501,-81.7165,2.18,80,100,3.09,CA,1675646263
487,grand-lahou,5.1367,-5.0242,26.52,87,84,4.28,CI,1675646444
488,mahibadhoo,3.7833,72.9667,27.35,75,87,3.72,MV,1675646482
489,caravelas,-17.7125,-39.2481,25.75,83,1,4.72,BR,1675646350
490,krasnoselkup,65.7,82.4667,-26.77,100,79,1.77,RU,1675646216
491,reserva,-24.6503,-50.8506,16.96,86,26,0.73,BR,1675646485
492,xam nua,20.4197,104.0439,17.63,93,89,0.92,LA,1675646486
493,vilhena,-12.7406,-60.1458,20.38,96,96,0.94,BR,1675646487
494,vila,42.0304,-8.1588,3.72,59,1,2.27,PT,1675646204
495,mongo,12.1844,18.693,23.17,12,100,3.07,TD,1675646488
496,capitan bado,-23.2667,-55.5333,21.12,67,1,1.07,PY,1675646489
497,vaasa,63.096,21.6158,-1.14,80,0,2.06,FI,1675646489
498,tateyama,34.9833,139.8667,9.55,65,18,2.76,JP,1675646490
499,rafaela,-31.2503,-61.4867,26.66,33,0,0.89,AR,1675646490
500,yaan,7.3833,8.5667,27.98,21,100,1.74,NG,1675646491
501,rudbar,30.15,62.6,11.45,49,0,2.21,AF,1675646492
502,dong hoi,17.4833,106.6,22.17,94,82,0.42,VN,1675646492
503,vestmannaeyjar,63.4427,-20.2734,4.64,66,100,10.63,IS,1675646254
504,diego de almagro,-26.3667,-70.05,20.18,57,45,1.79,CL,1675646494
505,phillipsburg,40.6937,-75.1902,4.8,57,100,1.82,US,1675646495
506,ridgecrest,35.6225,-117.6709,11.92,46,20,8.05,US,1675646495
507,guangyuan,32.442,105.823,9.43,66,12,1.31,CN,1675646496
508,norilsk,69.3535,88.2027,-15.32,98,100,0.85,RU,1675646496
509,lamu,-2.2717,40.902,25.12,84,3,5.04,KE,1675646497
510,plettenberg bay,-34.0527,23.3716,20.77,96,60,2.05,ZA,1675646497
511,bonavista,48.6499,-53.1147,-4.51,77,99,9.8,CA,1675646497
512,kyzyl-suu,42.3414,78.0056,-2.32,70,100,1.96,KG,1675646498
513,itaituba,-4.2761,-55.9836,22.74,99,75,0.52,BR,1675646500
514,pinega,64.7001,43.3936,-19.56,99,76,2.7,RU,1675646505
515,marstal,54.8562,10.5173,2.95,86,100,3.92,DK,1675646508
516,milove,49.3787,40.1302,-10.45,96,84,3.36,UA,1675646508
517,casablanca,33.5928,-7.6192,7.01,78,0,2.43,MA,1675646303
518,aklavik,68.2191,-135.0107,-39.72,100,28,0.74,CA,1675645847
519,viedma,-40.8135,-62.9967,22.76,49,74,7.54,AR,1675646510
520,filadelfia,39.9523,-75.1638,7.27,58,0,0.0,US,1675645943
521,mlyniv,50.509,25.6168,-2.26,87,80,3.34,UA,1675646511
522,kano,12.0001,8.5167,16.94,59,0,2.06,NG,1675646262
523,bereda,43.2686,-7.5406,2.3,100,48,2.19,ES,1675646280
524,zapolyarnyy,69.4154,30.8136,-5.4,91,100,5.39,RU,1675646512
525,luebo,-5.35,21.4167,20.32,95,93,0.8,CD,1675646513
526,kawalu,-7.3817,108.2082,24.3,74,92,0.82,ID,1675646230
527,muzhi,65.3667,64.6667,-17.44,97,100,0.98,RU,1675646514
528,novyy buh,47.6931,32.5216,-2.84,83,95,6.15,UA,1675646515
529,yomou,7.5603,-9.2653,22.36,89,100,1.14,GN,1675646515
530,tiarei,-17.5333,-149.3333,29.01,75,100,5.78,PF,1675646442
531,oussouye,12.485,-16.5469,20.1,58,86,4.06,SN,1675646496
532,kemise,10.7167,39.8667,16.91,56,7,1.0,ET,1675646516
533,pokosnoye,55.5258,101.0536,-26.72,100,100,1.17,RU,1675646517
534,owensboro,37.7742,-87.1133,8.48,75,0,3.09,US,1675646492
535,griffith,41.5284,-87.4237,2.25,78,0,3.09,US,1675646445
536,paulista,-7.9408,-34.8731,27.92,81,26,3.8,BR,1675646518
537,lazaro cardenas,17.9583,-102.2,24.68,75,0,2.84,MX,1675646183
538,tirat karmel,32.7617,34.9719,13.16,60,10,11.43,IL,1675646519
539,carbondale,37.7273,-89.2168,9.47,72,0,2.06,US,1675646376
540,farmington hills,42.4853,-83.3772,3.75,82,100,4.63,US,1675646485
541,bogashevo,56.3683,85.1447,-20.09,84,20,1.0,RU,1675646520
542,conceicao do araguaia,-8.2578,-49.2647,23.19,92,45,1.37,BR,1675646521
543,banff,51.1762,-115.5698,3.57,55,44,2.06,CA,1675646522
544,mao,39.8885,4.2658,11.31,58,75,9.26,ES,1675646523
545,port macquarie,-31.4333,152.9167,28.27,56,3,4.29,AU,1675646446
546,nizhniy ingash,56.2,96.53,-23.95,100,100,1.45,RU,1675646524
547,panzhihua,26.5851,101.7128,10.06,48,0,0.62,CN,1675646524
548,susurluk,39.9136,28.1578,1.02,98,100,9.64,TR,1675646525
549,bayan,46.0833,127.4,-17.49,92,52,1.37,CN,1675646526
550,panaba,21.2833,-88.2667,21.92,86,27,4.83,MX,1675646491
551,placido de castro,-10.3353,-67.1856,22.55,98,100,1.05,BR,1675646528
552,ahuimanu,21.4447,-157.8378,27.84,75,40,6.69,US,1675646382
553,pericos,25.05,-107.7,25.2,51,0,2.53,MX,1675646530
554,lompoc,34.6391,-120.4579,13.8,80,0,6.69,US,1675645918
555,talaya,61.3833,152.75,-32.41,98,100,1.38,RU,1675646533
556,norwalk,33.9022,-118.0817,17.96,64,20,9.77,US,1675646538
557,jibuti,11.5,42.5,19.24,81,32,3.99,DJ,1675646539
558,mandan,46.8267,-100.8896,-0.35,82,0,4.47,US,1675646540
559,yeppoon,-23.1333,150.7333,29.88,76,60,7.5,AU,1675646339
560,helena,46.5927,-112.0361,4.44,77,0,2.57,US,1675646543
561,kushmurun,52.4503,64.6311,-13.92,96,96,3.0,KZ,1675646454
562,balaipungut,1.05,101.2833,23.99,94,100,0.64,ID,1675646548
563,acarau,-2.8856,-40.12,25.52,85,100,4.29,BR,1675646335
564,coihaique,-45.5752,-72.0662,14.34,67,1,3.43,CL,1675646396
565,luwuk,-0.9516,122.7875,29.44,62,96,1.8,ID,1675646556
566,nalut,30.3333,10.85,8.12,67,100,2.98,LY,1675646556
567,ileza,61.0533,43.9002,-22.11,100,100,0.48,RU,1675646557
568,meulaboh,4.1363,96.1285,24.49,86,100,2.85,ID,1675646226
569,maracacume,-2.0428,-45.9592,22.75,98,81,1.39,BR,1675646558
570,evensk,61.95,159.2333,-24.89,78,19,3.71,RU,1675646505
571,neiafu,-18.65,-173.9833,29.38,74,75,4.12,TO,1675646560
572,vila velha,-20.3297,-40.2925,27.19,84,0,5.66,BR,1675645961
573,haines junction,60.7522,-137.5108,-10.03,79,100,0.51,CA,1675646264
574,ahar,38.4774,47.0699,-1.48,84,100,3.15,IR,1675646565
575,seoul,37.5683,126.9778,2.76,87,20,0.51,KR,1675646352
576,covington,39.0837,-84.5086,9.08,69,40,3.09,US,1675646565
577,igarka,67.4667,86.5833,-20.94,99,100,2.29,RU,1675646566
578,taguatinga,-12.3857,-46.5711,24.68,71,20,0.63,BR,1675646567
